[{"id":"locker-1","type":"locker","name":"서울역 물품보관함","description":"1호선 1호선 1번 출입구 주변","lng":126.969769,"lat":37.553247},{"id":"locker-2","type":"locker","name":"서울역 물품보관함","description":"1호선 2,3번 출입구 복도 사이","lng":126.969769,"lat":37.553247},{"id":"locker-3","type":"locker","name":"서울역 물품보관함","description":"1호선 2,3번 출입구 복도 사이/화장실 주변","lng":126.969769,"lat":37.553247},{"id":"locker-4","type":"locker","name":"시청 물품보관함","description":"1호선 1번 출구 주변","lng":126.975411,"lat":37.563588},{"id":"locker-5","type":"locker","name":"시청 물품보관함","description":"1호선 2,3번 출구 주변","lng":126.975411,"lat":37.563588},{"id":"locker-6","type":"locker","name":"종각 물품보관함","description":"1호선 4번 출구 주변","lng":126.982923,"lat":37.570161},{"id":"locker-7","type":"locker","name":"종각 물품보관함","description":"1호선 3번 출구 주변 게이트","lng":126.982923,"lat":37.570161},{"id":"locker-8","type":"locker","name":"종로3가 물품보관함","description":"1호선 2-1번 출입구 게이트 내부","lng":126.990305,"lat":37.57254},{"id":"locker-9","type":"locker","name":"종로3가 물품보관함","description":"1호선 10,11,12,13번 출구 게이트 주변","lng":126.990305,"lat":37.57254},{"id":"locker-10","type":"locker","name":"종로5가 물품보관함","description":"1호선 중앙게이트 주변, ATM 옆","lng":127.001849,"lat":37.570926},{"id":"locker-11","type":"locker","name":"종로5가 물품보관함","description":"1호선 중앙게이트 주변, ATM 옆","lng":127.001849,"lat":37.570926},{"id":"locker-12","type":"locker","name":"동대문 물품보관함","description":"1호선 1번 출입구 주변","lng":127.009287,"lat":37.57093},{"id":"locker-13","type":"locker","name":"신설동 물품보관함","description":"1호선 우이신설 환승입구와 게이트 근처의 ATM 기기 주변","lng":127.023242,"lat":37.576095},{"id":"locker-14","type":"locker","name":"제기동 물품보관함","description":"1호선 2번  출구 계단 주변","lng":127.034893,"lat":37.578103},{"id":"locker-15","type":"locker","name":"청량리 물품보관함","description":"1호선 4번 출입구 계단 밑","lng":127.0483,"lat":37.580759},{"id":"locker-16","type":"locker","name":"동묘앞 물품보관함","description":"1호선 3번 출입구 내부 에스컬레이터 주변","lng":127.015653,"lat":37.572279},{"id":"locker-17","type":"locker","name":"시청 물품보관함","description":"2호선 8번 출구 → 1호선환승 방향","lng":126.975411,"lat":37.563588},{"id":"locker-18","type":"locker","name":"을지로입구 물품보관함","description":"2호선 중앙 게이트 주변","lng":126.982618,"lat":37.566014},{"id":"locker-19","type":"locker","name":"을지로입구 물품보관함","description":"2호선 3,4번 출입구 방향 통로","lng":126.982618,"lat":37.566014},{"id":"locker-20","type":"locker","name":"을지로3가 물품보관함","description":"2호선 게이트 통로 상가 주변","lng":126.992548,"lat":37.566672},{"id":"locker-21","type":"locker","name":"을지로4가 물품보관함","description":"2호선 지하1층 1,2번 출구 방향 화장실 주변","lng":126.998032,"lat":37.567352},{"id":"locker-22","type":"locker","name":"동대문역사문화공원 물품보관함","description":"2호선 1번 출입구 주변","lng":127.005353,"lat":37.564665},{"id":"locker-23","type":"locker","name":"동대문역사문화공원 물품보관함","description":"2호선 1번 출입구, 상가 주변","lng":127.005353,"lat":37.564665},{"id":"locker-24","type":"locker","name":"신당 물품보관함","description":"2호선 2,3번 출구 사이 복도","lng":127.016146,"lat":37.566154},{"id":"locker-25","type":"locker","name":"상왕십리 물품보관함","description":"2호선 2,3,4번 출구 사이 복도","lng":127.029354,"lat":37.564354},{"id":"locker-26","type":"locker","name":"왕십리 물품보관함","description":"2호선 3번 출입구 주변","lng":127.037059,"lat":37.56184},{"id":"locker-27","type":"locker","name":"한양대 물품보관함","description":"2호선 2,4번 출입구 주변","lng":127.043655,"lat":37.555273},{"id":"locker-28","type":"locker","name":"뚝섬 물품보관함","description":"2호선 1,2,7,8번 출입구 주변","lng":127.047367,"lat":37.547184},{"id":"locker-29","type":"locker","name":"성수 물품보관함","description":"2호선 1,4번 출입구 주변","lng":127.055961,"lat":37.544581},{"id":"locker-30","type":"locker","name":"성수 물품보관함","description":"2호선 3번 출구 주변 상가 사이","lng":127.055961,"lat":37.544581},{"id":"locker-31","type":"locker","name":"건대입구 물품보관함","description":"2호선 6번 출입구 주변","lng":127.071011,"lat":37.540786},{"id":"locker-32","type":"locker","name":"건대입구 물품보관함","description":"2호선 2번 출입구 주변","lng":127.071011,"lat":37.540786},{"id":"locker-33","type":"locker","name":"건대입구 물품보관함","description":"2호선 5번 출입구 주변","lng":127.071011,"lat":37.540786},{"id":"locker-34","type":"locker","name":"구의 물품보관함","description":"2호선 1,4번 출입구, 서비스센터 맞은편","lng":127.085916,"lat":37.537077},{"id":"locker-35","type":"locker","name":"강변 물품보관함","description":"2호선 화장실 맞은편","lng":127.094681,"lat":37.535095},{"id":"locker-36","type":"locker","name":"강변 물품보관함","description":"2호선 3번 출입구 주변","lng":127.094681,"lat":37.535095},{"id":"locker-37","type":"locker","name":"잠실나루 물품보관함","description":"2호선 2,3번 출입구 주변","lng":127.10379,"lat":37.520733},{"id":"locker-38","type":"locker","name":"잠실 물품보관함","description":"2호선 1,2번 출입구 주변","lng":127.104338,"lat":37.514692},{"id":"locker-39","type":"locker","name":"잠실 물품보관함","description":"2호선 1,2번 출입구 주변","lng":127.104338,"lat":37.514692},{"id":"locker-40","type":"locker","name":"잠실 물품보관함","description":"2호선 1,2번 출입구에서 3,4번  출입구 방향 통로 내부","lng":127.104338,"lat":37.514692},{"id":"locker-41","type":"locker","name":"잠실 물품보관함","description":"2호선 1,2번 출입구에서 3,4번  출입구 방향 통로 내부","lng":127.104338,"lat":37.514692},{"id":"locker-42","type":"locker","name":"잠실새내 물품보관함","description":"2호선 7번 출입구 주변","lng":127.086162,"lat":37.511687},{"id":"locker-43","type":"locker","name":"종합운동장 물품보관함","description":"2호선 5번 출입구 주변","lng":127.076275,"lat":37.511426},{"id":"locker-44","type":"locker","name":"종합운동장 물품보관함","description":"2호선 6번 출입구 주변","lng":127.076275,"lat":37.511426},{"id":"locker-45","type":"locker","name":"삼성 물품보관함","description":"2호선 3,4,5,6번 출입구 방향 통로(역무실 맞은편)","lng":127.06324,"lat":37.50887},{"id":"locker-46","type":"locker","name":"삼성 물품보관함","description":"2호선 1,2,7,8번 출입구 방향 통로","lng":127.06324,"lat":37.50887},{"id":"locker-47","type":"locker","name":"삼성 물품보관함","description":"2호선 3,4번 출입구 방향 통로","lng":127.06324,"lat":37.50887},{"id":"locker-48","type":"locker","name":"선릉 물품보관함","description":"2호선 1,10번 출입구 방향 게이트 주변","lng":127.048807,"lat":37.504856},{"id":"locker-49","type":"locker","name":"선릉 물품보관함","description":"2호선 5번 출입구에서 10번 출입구 방향","lng":127.048807,"lat":37.504856},{"id":"locker-50","type":"locker","name":"역삼 물품보관함","description":"2호선 3,4번 출입구 통로","lng":127.036456,"lat":37.500622},{"id":"locker-51","type":"locker","name":"강남 물품보관함","description":"2호선 1,12번 출입구 게이트 주변","lng":127.028104,"lat":37.496837},{"id":"locker-52","type":"locker","name":"강남 물품보관함","description":"2호선 1,12번 출입구 통로 상가 맞은편","lng":127.028104,"lat":37.496837},{"id":"locker-53","type":"locker","name":"교대 물품보관함","description":"2호선 지하1층 6,7번 출구 주변","lng":127.013786,"lat":37.493025},{"id":"locker-54","type":"locker","name":"서초 물품보관함","description":"2호선 지하1층 8번 출구 주변","lng":127.007917,"lat":37.491897},{"id":"locker-55","type":"locker","name":"방배 물품보관함","description":"2호선 지하1층 4번 출구 주변","lng":126.997596,"lat":37.481426},{"id":"locker-56","type":"locker","name":"사당 물품보관함","description":"2호선 지하1층 13,14번 출구 방향 편의점 맞은편","lng":126.981651,"lat":37.476955},{"id":"locker-57","type":"locker","name":"낙성대 물품보관함","description":"2호선 7,8번 출입구 주변","lng":126.963693,"lat":37.47693},{"id":"locker-58","type":"locker","name":"서울대입구 물품보관함","description":"2호선 5,6번 출입구 주변 화장실 주변","lng":126.952739,"lat":37.481247},{"id":"locker-59","type":"locker","name":"봉천 물품보관함","description":"2호선 4번 출입구 주변","lng":126.941892,"lat":37.482362},{"id":"locker-60","type":"locker","name":"신림 물품보관함","description":"2호선 3,4번 출입구 주변(아이센터 주변)","lng":126.9296159,"lat":37.4849266},{"id":"locker-61","type":"locker","name":"신림 물품보관함","description":"2호선 1,8번 출입구 사이 벽면","lng":126.9296159,"lat":37.4849266},{"id":"locker-62","type":"locker","name":"신대방 물품보관함","description":"2호선 1번 출입구 주변","lng":126.913149,"lat":37.487462},{"id":"locker-63","type":"locker","name":"구로디지털단지 물품보관함","description":"2호선 6번 출입구 주변","lng":126.901401,"lat":37.485266},{"id":"locker-64","type":"locker","name":"대림 물품보관함","description":"2호선 1,2번 출입구 통로","lng":126.897075,"lat":37.493013},{"id":"locker-65","type":"locker","name":"신도림 물품보관함","description":"2호선 1번 출입구 외부문 주변","lng":126.891144,"lat":37.508787},{"id":"locker-66","type":"locker","name":"신도림 물품보관함","description":"2호선 2번 출입구 주변","lng":126.891144,"lat":37.508787},{"id":"locker-67","type":"locker","name":"신도림 물품보관함","description":"2호선 1번 출입구 게이트 내부 상가 주변","lng":126.891144,"lat":37.508787},{"id":"locker-68","type":"locker","name":"문래 물품보관함","description":"2호선 2번 출입구 통로","lng":126.89476,"lat":37.517933},{"id":"locker-69","type":"locker","name":"영등포구청 물품보관함","description":"2호선 3번 출입구 게이트 내부 계단 주변","lng":126.89503,"lat":37.5242},{"id":"locker-70","type":"locker","name":"당산 물품보관함","description":"2호선 1,2번 출입구 주변","lng":126.902809,"lat":37.533406},{"id":"locker-71","type":"locker","name":"합정 물품보관함","description":"2호선 1,2,3,4번 출입구 주변","lng":126.913366,"lat":37.549209},{"id":"locker-72","type":"locker","name":"홍대입구 물품보관함","description":"2호선 2,8번 출입구 주변","lng":126.926715,"lat":37.557438},{"id":"locker-73","type":"locker","name":"홍대입구 물품보관함","description":"2호선 2,8번 출입구 주변","lng":126.926715,"lat":37.557438},{"id":"locker-74","type":"locker","name":"홍대입구 물품보관함","description":"2호선 2,8번 출입구 게이트 맞은편 화장실 주변","lng":126.926715,"lat":37.557438},{"id":"locker-75","type":"locker","name":"홍대입구 물품보관함","description":"2호선 2,8번 출입구 게이트 맞은편 화장실 주변","lng":126.926715,"lat":37.557438},{"id":"locker-76","type":"locker","name":"홍대입구 물품보관함","description":"2호선 2번에서 3번 출입구 복도 사이","lng":126.926715,"lat":37.557438},{"id":"locker-77","type":"locker","name":"신촌 물품보관함","description":"2호선 지하1층  백화점 연결통로 주변","lng":126.942597,"lat":37.559733},{"id":"locker-78","type":"locker","name":"신촌 물품보관함","description":"2호선 5번 출입구 게이트 주변","lng":126.942597,"lat":37.559733},{"id":"locker-79","type":"locker","name":"신촌 물품보관함","description":"2호선 5번 출입구 게이트 주변","lng":126.942597,"lat":37.559733},{"id":"locker-80","type":"locker","name":"이대 물품보관함","description":"2호선 5번 출입구 화장실 주변","lng":126.946013,"lat":37.556733},{"id":"locker-81","type":"locker","name":"아현 물품보관함","description":"2호선 3번 출입구 ATM주변","lng":126.956141,"lat":37.557345},{"id":"locker-83","type":"locker","name":"용답 물품보관함","description":"2호선 1,2번 출입구 사이 게이트 주변","lng":127.050899,"lat":37.561904},{"id":"locker-84","type":"locker","name":"신답 물품보관함","description":"2호선 1번 출입구 주변 게이트 주변","lng":127.046481,"lat":37.57004},{"id":"locker-85","type":"locker","name":"신설동 물품보관함","description":"2호선 10번 출입구 게이트 내부","lng":127.023242,"lat":37.576095},{"id":"locker-86","type":"locker","name":"도림천 물품보관함","description":"2호선 1번 출입구 게이트 주변","lng":126.882768,"lat":37.514287},{"id":"locker-87","type":"locker","name":"양천구청 물품보관함","description":"2호선 2번 출입구 상가(던킨도너츠) 주변","lng":126.865819,"lat":37.512398},{"id":"locker-88","type":"locker","name":"신정네거리 물품보관함","description":"2호선 3번 출입구 주변","lng":126.852912,"lat":37.520074},{"id":"locker-89","type":"locker","name":"용두 물품보관함","description":"2호선 1번 출입구에서 3번 출입구 사이 통로","lng":127.038091,"lat":37.574028},{"id":"locker-90","type":"locker","name":"지축 물품보관함","description":"3호선 1번 출입구 게이트 주변","lng":126.91397,"lat":37.648017},{"id":"locker-91","type":"locker","name":"구파발 물품보관함","description":"3호선 1,4번 출입구 주변","lng":126.918821,"lat":37.636763},{"id":"locker-92","type":"locker","name":"연신내 물품보관함","description":"3호선 6,7번 출입구 주변","lng":126.9213,"lat":37.61878},{"id":"locker-93","type":"locker","name":"불광 물품보관함","description":"3호선 1,4,5번 출입구 주변","lng":126.92939,"lat":37.610873},{"id":"locker-94","type":"locker","name":"녹번 물품보관함","description":"3호선 1,4,5번 출입구 주변","lng":126.935756,"lat":37.600927},{"id":"locker-95","type":"locker","name":"홍제 물품보관함","description":"3호선 지하2층 1,4번 출입구 주변","lng":126.943736,"lat":37.589066},{"id":"locker-96","type":"locker","name":"홍제 물품보관함","description":"3호선 지하2층 2,3번 출입구 주변","lng":126.943736,"lat":37.589066},{"id":"locker-97","type":"locker","name":"무악재 물품보관함","description":"3호선 지하2층 복도 통로","lng":126.950291,"lat":37.582299},{"id":"locker-98","type":"locker","name":"독립문 물품보관함","description":"3호선 3,4번 출입구 주변","lng":126.957748,"lat":37.574571},{"id":"locker-99","type":"locker","name":"경복궁 물품보관함","description":"3호선 7번 출입구 주변 계단 밑","lng":126.97353,"lat":37.575762},{"id":"locker-100","type":"locker","name":"경복궁 물품보관함","description":"3호선 7번출구 지하2층 고객안전실 옆","lng":126.97353,"lat":37.575762},{"id":"locker-101","type":"locker","name":"경복궁 물품보관함","description":"3호선 7번 출입구 주변 계단 밑","lng":126.97353,"lat":37.575762},{"id":"locker-102","type":"locker","name":"안국 물품보관함","description":"3호선 B2층 게이트 주변","lng":126.985443,"lat":37.576477},{"id":"locker-103","type":"locker","name":"안국 물품보관함","description":"3호선 B2층 게이트 주변","lng":126.985443,"lat":37.576477},{"id":"locker-104","type":"locker","name":"종로3가 물품보관함","description":"3호선 2-1번 출입구 게이트 내부","lng":126.990305,"lat":37.57254},{"id":"locker-105","type":"locker","name":"을지로3가 물품보관함","description":"3호선 9번 출입구 게이트 주변","lng":126.992548,"lat":37.566672},{"id":"locker-106","type":"locker","name":"동대입구 물품보관함","description":"3호선 1,2번 출입구와 3,4번 출입구 사이 통로","lng":127.005602,"lat":37.559052},{"id":"locker-107","type":"locker","name":"약수 물품보관함","description":"3호선 4,5번 출입구 게이트 내부","lng":127.010358,"lat":37.554263},{"id":"locker-108","type":"locker","name":"금호 물품보관함","description":"3호선 3번 출입구 주변","lng":127.015872,"lat":37.548034},{"id":"locker-109","type":"locker","name":"옥수 물품보관함","description":"3호선 1,2번 출입구 방향 화장실 주변","lng":127.018672,"lat":37.540446},{"id":"locker-110","type":"locker","name":"압구정 물품보관함","description":"3호선 6번 출입구 주변","lng":127.028461,"lat":37.527072},{"id":"locker-111","type":"locker","name":"압구정 물품보관함","description":"3호선 4번 출입구 주변","lng":127.028461,"lat":37.527072},{"id":"locker-112","type":"locker","name":"신사 물품보관함","description":"3호선 6번 출입구 게이트 주변","lng":127.020114,"lat":37.516334},{"id":"locker-113","type":"locker","name":"신사 물품보관함","description":"3호선 6, 7번 출입구 주변","lng":127.020114,"lat":37.516334},{"id":"locker-114","type":"locker","name":"잠원 물품보관함","description":"3호선 1번 출입구 우측 게이트 주변","lng":127.01122,"lat":37.512759},{"id":"locker-115","type":"locker","name":"고속터미널 물품보관함","description":"3호선 1번 출입구 9호선 환승게이트 주변","lng":127.004403,"lat":37.50598},{"id":"locker-116","type":"locker","name":"고속터미널 물품보관함","description":"3호선 대합실 중앙지하  2층 대합실 상가(네이처리퍼블릭) 주변","lng":127.004403,"lat":37.50598},{"id":"locker-117","type":"locker","name":"교대 물품보관함","description":"3호선 지하 1층 12,13번 출입구 사이 화장실 주변","lng":127.013786,"lat":37.493025},{"id":"locker-118","type":"locker","name":"남부터미널 물품보관함","description":"3호선 지하2층5,6번 출입구 주변 계단 밑","lng":127.016189,"lat":37.485013},{"id":"locker-119","type":"locker","name":"양재 물품보관함","description":"3호선 11,12번 출입구 주변 게이트 주변","lng":127.034653,"lat":37.483809},{"id":"locker-120","type":"locker","name":"양재 물품보관함","description":"3호선 3,4번 출입구 주변 편의점 주변","lng":127.034653,"lat":37.483809},{"id":"locker-121","type":"locker","name":"매봉 물품보관함","description":"3호선 1,2번 출입구 주변 화장실 주변","lng":127.046769,"lat":37.486947},{"id":"locker-122","type":"locker","name":"도곡 물품보관함","description":"3호선 4번 출입구 주변 게이트 맞은편","lng":127.055186,"lat":37.491224},{"id":"locker-123","type":"locker","name":"대치 물품보관함","description":"3호선 3번 출입구 주변 게이트 주변","lng":127.063642,"lat":37.494612},{"id":"locker-124","type":"locker","name":"학여울 물품보관함","description":"3호선 1번 출입구 주변 역무실 주변","lng":127.070594,"lat":37.496663},{"id":"locker-125","type":"locker","name":"대청 물품보관함","description":"3호선 3번 출입구 주변 게이트 주변","lng":127.079532,"lat":37.493514},{"id":"locker-126","type":"locker","name":"일원 물품보관함","description":"3호선 4번 출입구에서 5번 출입구 가는 통로 내부","lng":127.08439,"lat":37.483681},{"id":"locker-127","type":"locker","name":"수서 물품보관함","description":"3호선 3번 출입구 게이트 주변","lng":127.10161,"lat":37.48637},{"id":"locker-128","type":"locker","name":"가락시장 물품보관함","description":"3호선 7번 출입구 화장실 주변","lng":127.118398,"lat":37.492888},{"id":"locker-129","type":"locker","name":"경찰병원 물품보관함","description":"3호선 2번 출입구 화장실 주변","lng":127.12454,"lat":37.495918},{"id":"locker-130","type":"locker","name":"오금 물품보관함","description":"3호선 2번 출입구 주변","lng":127.127938,"lat":37.502057},{"id":"locker-132","type":"locker","name":"상계 물품보관함","description":"4호선 지상2층 복도사이","lng":127.073572,"lat":37.660878},{"id":"locker-133","type":"locker","name":"노원 물품보관함","description":"4호선 지상2층 복도사이","lng":127.060462,"lat":37.654836},{"id":"locker-134","type":"locker","name":"창동 물품보관함","description":"4호선 2번 출입구 주변","lng":127.047274,"lat":37.653088},{"id":"locker-135","type":"locker","name":"쌍문 물품보관함","description":"4호선 1번 출입구 주변","lng":127.034709,"lat":37.648627},{"id":"locker-136","type":"locker","name":"수유 물품보관함","description":"4호선 5,6번 출입구 주변","lng":127.025732,"lat":37.638052},{"id":"locker-137","type":"locker","name":"미아 물품보관함","description":"4호선 3,4,5,6번 출입구 게이트 주변","lng":127.025983,"lat":37.62667},{"id":"locker-138","type":"locker","name":"미아사거리 물품보관함","description":"4호선 롯데몰  환승통로","lng":127.030053,"lat":37.613292},{"id":"locker-139","type":"locker","name":"미아사거리 물품보관함","description":"4호선 5번 출입구 게이트주변","lng":127.030053,"lat":37.613292},{"id":"locker-140","type":"locker","name":"길음 물품보관함","description":"4호선 10번 출입구 게이트주변","lng":127.025053,"lat":37.603407},{"id":"locker-141","type":"locker","name":"성신여대입구 물품보관함","description":"4호선 우이신설  환승통로 주변 벽면","lng":127.016516,"lat":37.592467},{"id":"locker-142","type":"locker","name":"성신여대입구 물품보관함","description":"4호선 7번 출입구 주변","lng":127.016516,"lat":37.592467},{"id":"locker-143","type":"locker","name":"한성대입구 물품보관함","description":"4호선 5번 출입구 게이트 주변","lng":127.006221,"lat":37.588458},{"id":"locker-144","type":"locker","name":"혜화 물품보관함","description":"4호선 지하 1층 화장실 주변","lng":127.001844,"lat":37.582336},{"id":"locker-145","type":"locker","name":"혜화 물품보관함","description":"4호선 4번 출입구 주변","lng":127.001844,"lat":37.582336},{"id":"locker-146","type":"locker","name":"혜화 물품보관함","description":"4호선 4번 출입구 주변","lng":127.001844,"lat":37.582336},{"id":"locker-147","type":"locker","name":"혜화 물품보관함","description":"4호선 4번 출입구 주변","lng":127.001844,"lat":37.582336},{"id":"locker-148","type":"locker","name":"동대문 물품보관함","description":"4호선 8번 출입구 주변","lng":127.009287,"lat":37.57093},{"id":"locker-149","type":"locker","name":"동대문 물품보관함","description":"4호선 9번 출입구 아이센터(i센터) 주변","lng":127.009287,"lat":37.57093},{"id":"locker-150","type":"locker","name":"동대문역사문화공원 물품보관함","description":"4호선 4호선 게이트 화장실 주변","lng":127.005353,"lat":37.564665},{"id":"locker-151","type":"locker","name":"충무로 물품보관함","description":"4호선 1,2,8번 출입구 주변","lng":126.99408,"lat":37.561207},{"id":"locker-152","type":"locker","name":"충무로 물품보관함","description":"4호선 3,4번 출입구 주변","lng":126.99408,"lat":37.561207},{"id":"locker-153","type":"locker","name":"명동 물품보관함","description":"4호선 1번 출입구 주변","lng":126.986325,"lat":37.560989},{"id":"locker-154","type":"locker","name":"명동 물품보관함","description":"4호선 4번 출입구 게이트 내부","lng":126.986325,"lat":37.560989},{"id":"locker-155","type":"locker","name":"명동 물품보관함","description":"4호선 4번 출입구 게이트 내부","lng":126.986325,"lat":37.560989},{"id":"locker-156","type":"locker","name":"명동 물품보관함","description":"4호선 4번 출입구 게이트 내부","lng":126.986325,"lat":37.560989},{"id":"locker-157","type":"locker","name":"회현 물품보관함","description":"4호선 3,4,5번 출입구 게이트 내부 지하2층 상가 주변","lng":126.978246,"lat":37.558514},{"id":"locker-158","type":"locker","name":"회현 물품보관함","description":"4호선 1,2,6,7번 출입구 게이트 내부","lng":126.978246,"lat":37.558514},{"id":"locker-159","type":"locker","name":"서울역 물품보관함","description":"4호선 11,14번 출입구 주변","lng":126.969769,"lat":37.553247},{"id":"locker-160","type":"locker","name":"숙대입구 물품보관함","description":"4호선 5,6,7,8번 출입구 주변","lng":126.972106,"lat":37.54456},{"id":"locker-161","type":"locker","name":"삼각지 물품보관함","description":"4호선 1,2,5,6번 출입구 주변","lng":126.974032,"lat":37.535534},{"id":"locker-162","type":"locker","name":"신용산 물품보관함","description":"4호선 1,5,6번 출입구 게이트 주변","lng":126.967894,"lat":37.52917},{"id":"locker-163","type":"locker","name":"이촌 물품보관함","description":"4호선 1번 출입구 게이트 주변","lng":126.973406,"lat":37.522427},{"id":"locker-164","type":"locker","name":"동작 물품보관함","description":"4호선 1번 출입구 게이트 주변","lng":126.978153,"lat":37.502878},{"id":"locker-165","type":"locker","name":"총신대입구 물품보관함","description":"4호선 2번 출입구 주변","lng":126.981989,"lat":37.486263},{"id":"locker-166","type":"locker","name":"총신대입구 물품보관함","description":"4호선 14번 출입구 게이트 주변","lng":126.981989,"lat":37.486263},{"id":"locker-167","type":"locker","name":"사당 물품보관함","description":"4호선 지하 1층 11,12번 출입구에서 3,4번 출입구 가는 통로","lng":126.981651,"lat":37.476955},{"id":"locker-168","type":"locker","name":"사당 물품보관함","description":"4호선 지하 1층 12번 출입구 주변","lng":126.981651,"lat":37.476955},{"id":"locker-169","type":"locker","name":"남태령 물품보관함","description":"4호선 지하 1층 1번 출입구에서 2,3번 출구 가는 통로","lng":126.989134,"lat":37.463873},{"id":"locker-170","type":"locker","name":"방화 물품보관함","description":"5호선 방화역 B1층 3,4번 출구 방면","lng":126.812741,"lat":37.577446},{"id":"locker-171","type":"locker","name":"개화산 물품보관함","description":"5호선 개화산역 B1층 게이트 우측 E/V 옆(2번출구)","lng":126.806171,"lat":37.572399},{"id":"locker-172","type":"locker","name":"김포공항 물품보관함","description":"5호선 김포공항역 B2층 국내선 방면 무빙워크옆","lng":126.801868,"lat":37.56236},{"id":"locker-173","type":"locker","name":"송정 물품보관함","description":"5호선 송정역 B2층 1,4번 출구 사이","lng":126.811973,"lat":37.561184},{"id":"locker-174","type":"locker","name":"마곡 물품보관함","description":"5호선 마곡역 B1층 환기실 우측(2번출구)","lng":126.825448,"lat":37.560183},{"id":"locker-175","type":"locker","name":"발산 물품보관함","description":"5호선 발산역 B1층 9번 출구 방면","lng":126.837668,"lat":37.558598},{"id":"locker-176","type":"locker","name":"우장산 물품보관함","description":"5호선 우장산역 B1층 3,4번 출구 방면","lng":126.836318,"lat":37.548768},{"id":"locker-177","type":"locker","name":"화곡 물품보관함","description":"5호선 화곡역 B1층 3,4번 출구 방면","lng":126.840461,"lat":37.541513},{"id":"locker-178","type":"locker","name":"까치산 물품보관함","description":"5호선 까치산역 B1층 4번 출구 방면","lng":126.846683,"lat":37.531768},{"id":"locker-179","type":"locker","name":"신정 물품보관함","description":"5호선 2,3번 출입구 내부(역무실 주변)","lng":126.856191,"lat":37.524997},{"id":"locker-180","type":"locker","name":"목동 물품보관함","description":"5호선 목동역 B1층 2번 출구 방면","lng":126.864931,"lat":37.526065},{"id":"locker-181","type":"locker","name":"오목교 물품보관함","description":"5호선 오목교역 B1층 7번 출구 방면(IBK현금지급기 옆)","lng":126.875181,"lat":37.524496},{"id":"locker-182","type":"locker","name":"오목교 물품보관함","description":"5호선 오목교역 B2층 게이트, 도서 대여기 옆","lng":126.875181,"lat":37.524496},{"id":"locker-183","type":"locker","name":"양평 물품보관함","description":"5호선 양평역 B1층 엘리베이터(E/V)주변(1,2번출구)","lng":126.886129,"lat":37.525569},{"id":"locker-184","type":"locker","name":"영등포구청 물품보관함","description":"5호선 영등포구청역 B4층 게이트 주변(6,7번출구)","lng":126.89503,"lat":37.5242},{"id":"locker-185","type":"locker","name":"영등포시장 물품보관함","description":"5호선 영등포시장역 B2층 편의점(7-ELEVEN) 옆(1~4번출구)","lng":126.905139,"lat":37.522669},{"id":"locker-186","type":"locker","name":"신길 물품보관함","description":"5호선 신길역 B3층 게이트 주변(3번출구)","lng":126.914839,"lat":37.517623},{"id":"locker-187","type":"locker","name":"여의도 물품보관함","description":"5호선 여의도역 B1층 6번 출구 방면","lng":126.92403,"lat":37.52176},{"id":"locker-188","type":"locker","name":"여의나루 물품보관함","description":"5호선 여의나루역 B1층 1, 4번 출구 방면 (현금지급기 옆)","lng":126.932901,"lat":37.527098},{"id":"locker-189","type":"locker","name":"여의나루 물품보관함","description":"5호선 여의나루역 B1층 2, 3번 출구 방면","lng":126.932901,"lat":37.527098},{"id":"locker-190","type":"locker","name":"마포 물품보관함","description":"5호선 마포역 B1층 3, 4번 출구 방면 (조명광고 옆)","lng":126.945932,"lat":37.539574},{"id":"locker-191","type":"locker","name":"공덕 물품보관함","description":"5호선 공덕역 B1층 2번 5번 출구 방면","lng":126.952024,"lat":37.54253},{"id":"locker-192","type":"locker","name":"애오개 물품보관함","description":"5호선 애오개역 B1층 화장실 주변(2번출구,E/V 주변)","lng":126.95682,"lat":37.553736},{"id":"locker-194","type":"locker","name":"서대문 물품보관함","description":"5호선 서대문역 B1층 4, 5번 출구 방면 (상가 맞은편)","lng":126.966641,"lat":37.565773},{"id":"locker-195","type":"locker","name":"광화문 물품보관함","description":"5호선 광화문역 B1층 2번 출구 방면 (통로)","lng":126.97717,"lat":37.571525},{"id":"locker-196","type":"locker","name":"광화문 물품보관함","description":"5호선 광화문역 B2층 고객상담실 앞(1,8번출구)","lng":126.97717,"lat":37.571525},{"id":"locker-197","type":"locker","name":"광화문 물품보관함","description":"5호선 광화문역 B1층 2번출구 방면","lng":126.97717,"lat":37.571525},{"id":"locker-198","type":"locker","name":"종로3가 물품보관함","description":"5호선 종로3가역 B1층 4, 5번 출구 방면 (게이트 주변)","lng":126.990305,"lat":37.57254},{"id":"locker-199","type":"locker","name":"을지로4가 물품보관함","description":"5호선 을지로4가역 B1층 편의점(7-ELEVEN) 주변(1,2번출구)","lng":126.998032,"lat":37.567352},{"id":"locker-200","type":"locker","name":"동대문역사문화공원 물품보관함","description":"5호선 동대문역사문화공원역 B2층 게이트 주변(6,7번출구)","lng":127.005353,"lat":37.564665},{"id":"locker-201","type":"locker","name":"청구 물품보관함","description":"5호선 청구역 B1층 2, 3번 출구 방면","lng":127.013986,"lat":37.560608},{"id":"locker-202","type":"locker","name":"신금호 물품보관함","description":"5호선 신금호역 B1층 E/V 기계실 주변","lng":127.020331,"lat":37.554548},{"id":"locker-203","type":"locker","name":"행당 물품보관함","description":"5호선 행당역 B3층 화장실 주변","lng":127.029476,"lat":37.557322},{"id":"locker-204","type":"locker","name":"왕십리 물품보관함","description":"5호선 왕십리역 B1층 4, 5번 출구 방면","lng":127.037059,"lat":37.56184},{"id":"locker-205","type":"locker","name":"왕십리 물품보관함","description":"5호선 6번출구 방향","lng":127.037059,"lat":37.56184},{"id":"locker-206","type":"locker","name":"마장 물품보관함","description":"5호선 마장역 B1층 편의점(7-ELEVEN) 주변","lng":127.042973,"lat":37.5661},{"id":"locker-207","type":"locker","name":"답십리 물품보관함","description":"5호선 답십리역 B2층 게이트 주변","lng":127.052704,"lat":37.566747},{"id":"locker-208","type":"locker","name":"장한평 물품보관함","description":"5호선 장한평역 B1층 화장실 주변","lng":127.064623,"lat":37.56144},{"id":"locker-209","type":"locker","name":"군자 물품보관함","description":"5호선 군자역 B1층 5, 6번 출구 방면","lng":127.079338,"lat":37.556897},{"id":"locker-210","type":"locker","name":"아차산 물품보관함","description":"5호선 아차산역 B1층  화장실 주변","lng":127.089761,"lat":37.551691},{"id":"locker-211","type":"locker","name":"광나루 물품보관함","description":"5호선 광나루역 B1층 3, 4번 출구 방면","lng":127.10357,"lat":37.545303},{"id":"locker-212","type":"locker","name":"천호 물품보관함","description":"5호선 천호역 B1층 3번출구 방면","lng":127.123254,"lat":37.538113},{"id":"locker-213","type":"locker","name":"천호 물품보관함","description":"5호선 천호역 B1층 상가 현금지급기 주변","lng":127.123254,"lat":37.538113},{"id":"locker-214","type":"locker","name":"강동 물품보관함","description":"5호선 강동역 B1층 화장실 주변","lng":127.132481,"lat":37.535804},{"id":"locker-215","type":"locker","name":"길동 물품보관함","description":"5호선 길동역 B1층 연결통로","lng":127.140004,"lat":37.537801},{"id":"locker-216","type":"locker","name":"굽은다리 물품보관함","description":"5호선 굽은다리역 B1층 1, 2번 출구 방면","lng":127.142853,"lat":37.545477},{"id":"locker-217","type":"locker","name":"명일 물품보관함","description":"5호선 명일역 B1층 3번 출구 방면","lng":127.143999,"lat":37.55137},{"id":"locker-218","type":"locker","name":"고덕 물품보관함","description":"5호선 고덕역 B1층 E/V 주변","lng":127.154151,"lat":37.555004},{"id":"locker-219","type":"locker","name":"상일동 물품보관함","description":"5호선 상일동역 B1층 3,4,5,6번 출구 방면","lng":127.166417,"lat":37.556712},{"id":"locker-220","type":"locker","name":"둔촌동 물품보관함","description":"5호선 둔촌동역 B1층 편의점(7-ELEVEN) 주변","lng":127.136248,"lat":37.527788},{"id":"locker-221","type":"locker","name":"올림픽공원 물품보관함","description":"5호선 1,2번 출구 주변 지하 1층","lng":127.130288,"lat":37.516269},{"id":"locker-222","type":"locker","name":"방이 물품보관함","description":"5호선 방이역 B1층 1번 출구 방면 (판매기실 옆)","lng":127.126133,"lat":37.508857},{"id":"locker-223","type":"locker","name":"개롱 물품보관함","description":"5호선 개롱역 B1층 1, 4번 출구 방면","lng":127.13482,"lat":37.498079},{"id":"locker-224","type":"locker","name":"거여 물품보관함","description":"5호선 거여역 B2층  2번 출구 방면 (창고 옆)","lng":127.14415,"lat":37.493105},{"id":"locker-225","type":"locker","name":"마천 물품보관함","description":"5호선 마천역 B1층 만남의 광장 주변(1번출구 근처)","lng":127.152781,"lat":37.49499},{"id":"locker-226","type":"locker","name":"응암 물품보관함","description":"6호선 응암역 중층 1, 2번 출구 방면","lng":126.915577,"lat":37.598605},{"id":"locker-227","type":"locker","name":"역촌 물품보관함","description":"6호선 역촌역 B1층 3번 출구 방면","lng":126.922744,"lat":37.606021},{"id":"locker-228","type":"locker","name":"불광 물품보관함","description":"6호선 불광역 중층 9번 출구 방면 (3호선 연결통로)","lng":126.92939,"lat":37.610873},{"id":"locker-229","type":"locker","name":"독바위 물품보관함","description":"6호선 독바위역 B3층 고객상담실 주변","lng":126.933031,"lat":37.618456},{"id":"locker-230","type":"locker","name":"구산 물품보관함","description":"6호선 구산역 B1층 3번 출구 방면","lng":126.91727,"lat":37.611377},{"id":"locker-231","type":"locker","name":"새절 물품보관함","description":"6호선 새절역 B1층 4번 출구 방면","lng":126.913629,"lat":37.591148},{"id":"locker-232","type":"locker","name":"증산 물품보관함","description":"6호선 증산역 B1층 3,4번 출구 방면","lng":126.909645,"lat":37.583876},{"id":"locker-233","type":"locker","name":"디지털미디어시티 물품보관함","description":"6호선 디지털미디어시티역 B1층 1, 5번 출구 방면 (통로)","lng":126.898609,"lat":37.576958},{"id":"locker-234","type":"locker","name":"월드컵경기장 물품보관함","description":"6호선 월드컵경기장역 B1층 2번 출구 방면 (화장실 주변)","lng":126.899298,"lat":37.569532},{"id":"locker-235","type":"locker","name":"마포구청 물품보관함","description":"6호선 마포구청역 B2층 1,2,8번출구 방면(화장실 주변)","lng":126.903343,"lat":37.563515},{"id":"locker-236","type":"locker","name":"망원 물품보관함","description":"6호선 망원역 B1층 1번 출구 방면 (화장실 주변)","lng":126.910052,"lat":37.556094},{"id":"locker-237","type":"locker","name":"합정 물품보관함","description":"6호선 합정역 B1층 5, 6번 출구 방면 (즉석사진기 주변)","lng":126.913366,"lat":37.549209},{"id":"locker-238","type":"locker","name":"상수 물품보관함","description":"6호선 상수역 B2층 게이트 주변 (휴게공간)","lng":126.922852,"lat":37.547716},{"id":"locker-239","type":"locker","name":"광흥창 물품보관함","description":"6호선 광흥창역 B1층 1, 2번 출구 방면 (만남의 광장)","lng":126.931993,"lat":37.547456},{"id":"locker-240","type":"locker","name":"대흥 물품보관함","description":"6호선 대흥역 B2층 만남의 광장 주변","lng":126.942069,"lat":37.547771},{"id":"locker-241","type":"locker","name":"공덕 물품보관함","description":"6호선 공덕역 B1층 6, 7번 출구 방면 공덕역","lng":126.952024,"lat":37.54253},{"id":"locker-242","type":"locker","name":"효창공원앞 물품보관함","description":"6호선 효창공원앞역 B1층 1번 출구 방면","lng":126.961384,"lat":37.539233},{"id":"locker-243","type":"locker","name":"삼각지 물품보관함","description":"6호선 삼각지역 B1층 7, 8번 출구 방면(화장실 주변)","lng":126.974032,"lat":37.535534},{"id":"locker-244","type":"locker","name":"녹사평 물품보관함","description":"6호선 녹사평역 B1층 E/V 주변 (편의점 (7-ELEVEN) 주변)","lng":126.986695,"lat":37.534675},{"id":"locker-245","type":"locker","name":"이태원 물품보관함","description":"6호선 이태원역 B1층 화장실 주변","lng":126.994302,"lat":37.534488},{"id":"locker-246","type":"locker","name":"이태원 물품보관함","description":"6호선 이태원역 B1층 화장실 앞","lng":126.994302,"lat":37.534488},{"id":"locker-247","type":"locker","name":"한강진 물품보관함","description":"6호선 한강진역 중층 1번 출구 방면","lng":127.001725,"lat":37.539631},{"id":"locker-248","type":"locker","name":"버티고개 물품보관함","description":"6호선 버티고개역 B1층 2번 출구 방면 (화장실 주변)","lng":127.007055,"lat":37.548013},{"id":"locker-249","type":"locker","name":"약수 물품보관함","description":"6호선 약수역 B1층 9번 출구 방면","lng":127.010358,"lat":37.554263},{"id":"locker-250","type":"locker","name":"신당 물품보관함","description":"6호선 신당역 B1층 11, 12번 출구 방면","lng":127.016146,"lat":37.566154},{"id":"locker-251","type":"locker","name":"동묘앞 물품보관함","description":"6호선 동묘앞역 B1층 4, 7번 출구 방면","lng":127.015653,"lat":37.572279},{"id":"locker-252","type":"locker","name":"창신 물품보관함","description":"6호선 창신역 B1층 4번 출구 방면","lng":127.015241,"lat":37.579661},{"id":"locker-253","type":"locker","name":"보문 물품보관함","description":"6호선 보문역 B1층 5~8번 출구 방면","lng":127.019381,"lat":37.585286},{"id":"locker-254","type":"locker","name":"안암 물품보관함","description":"6호선 안암역 B1층 3, 4번 출구 방면","lng":127.029005,"lat":37.586272},{"id":"locker-255","type":"locker","name":"고려대 물품보관함","description":"6호선 고려대역 B1층 5, 6번 출구 방면 (자전거 보관함 주변)","lng":127.036296,"lat":37.590508},{"id":"locker-256","type":"locker","name":"월곡 물품보관함","description":"6호선 월곡역 B1층 화장실 주변","lng":127.041518,"lat":37.601948},{"id":"locker-257","type":"locker","name":"상월곡 물품보관함","description":"6호선 상월곡역 B2층 1, 4번 출구 방면(화장실 주변)","lng":127.048491,"lat":37.606377},{"id":"locker-258","type":"locker","name":"돌곶이 물품보관함","description":"6호선 돌곶이역 B1층 5~8번 출구 방면 (화장실 주변)","lng":127.056431,"lat":37.610537},{"id":"locker-259","type":"locker","name":"석계 물품보관함","description":"6호선 석계역 B1층 2, 3번 출구 방면","lng":127.065595,"lat":37.614872},{"id":"locker-260","type":"locker","name":"화랑대 물품보관함","description":"6호선 화랑대역 B1층 1~4번 출구 방면(자전거보관함 주변)","lng":127.084689,"lat":37.620064},{"id":"locker-261","type":"locker","name":"봉화산 물품보관함","description":"6호선 봉화산역 B1층 3번 출구 방면","lng":127.091401,"lat":37.617283},{"id":"locker-262","type":"locker","name":"도봉산 물품보관함","description":"7호선 도봉산역 2번 출구 방면 (출입구 주변)","lng":127.046509,"lat":37.689241},{"id":"locker-263","type":"locker","name":"수락산 물품보관함","description":"7호선 수락산역 B2층 5, 6번 방면 (편의점(GS25) 주변)","lng":127.055315,"lat":37.67785},{"id":"locker-264","type":"locker","name":"마들 물품보관함","description":"7호선 마들역 B1층 4, 5번 출구 방면","lng":127.057675,"lat":37.66494},{"id":"locker-265","type":"locker","name":"노원 물품보관함","description":"7호선 노원역 B1층 5~7번 출구 방면(E/V 주변)","lng":127.060462,"lat":37.654836},{"id":"locker-266","type":"locker","name":"중계 물품보관함","description":"7호선 중계역 B1층 1, 2번 출구 방면","lng":127.064303,"lat":37.644583},{"id":"locker-267","type":"locker","name":"하계 물품보관함","description":"7호선 하계역 B1층 2~5번 출구 (화장실 주변)","lng":127.06799,"lat":37.636352},{"id":"locker-268","type":"locker","name":"공릉 물품보관함","description":"7호선 공릉역 B1층 1~4번 출구 (화장실 주변)","lng":127.072896,"lat":37.625742},{"id":"locker-269","type":"locker","name":"태릉입구 물품보관함","description":"7호선 태릉입구역 B3층 3, 4번 출구 방면 (E/S, E/V 주변)","lng":127.075397,"lat":37.618294},{"id":"locker-270","type":"locker","name":"먹골 물품보관함","description":"7호선 먹골역 B1층 1, 2번 출구 방면 (화장실 주변)","lng":127.077725,"lat":37.610637},{"id":"locker-271","type":"locker","name":"중화 물품보관함","description":"7호선 중화역 B1층 1, 4번 출구 방면 (만남의 광장 주변)","lng":127.079264,"lat":37.602545},{"id":"locker-272","type":"locker","name":"상봉 물품보관함","description":"7호선 상봉역 B1층 1, 2, 5, 6번 출구 방면","lng":127.085716,"lat":37.595577},{"id":"locker-273","type":"locker","name":"면목 물품보관함","description":"7호선 면목역 B1층 1번 출구 방면(쉼터 주변)","lng":127.087503,"lat":37.588579},{"id":"locker-274","type":"locker","name":"사가정 물품보관함","description":"7호선 사가정역 B1층3, 4번 출구 방면 (게이트 주변)","lng":127.088478,"lat":37.580894},{"id":"locker-275","type":"locker","name":"용마산 물품보관함","description":"7호선 용마산역 B1층 만남의 광장 (편의점(GS25) 주변, 게이트 정면)","lng":127.086727,"lat":37.573647},{"id":"locker-276","type":"locker","name":"중곡 물품보관함","description":"7호선 중곡역 B2층 게이트 주변","lng":127.08432,"lat":37.565923},{"id":"locker-277","type":"locker","name":"어린이대공원 물품보관함","description":"7호선 어린이대공원역 B1층 1, 6번 출구 방면","lng":127.074658,"lat":37.548014},{"id":"locker-278","type":"locker","name":"건대입구 물품보관함","description":"7호선 건대입구역 B2층 3번 출구 방면(편의점(GS25) 주변)","lng":127.071011,"lat":37.540786},{"id":"locker-279","type":"locker","name":"건대입구 물품보관함","description":"7호선 건대입구역 2층 환승(2→7)통로 (운임지역 내, 2번 출구)","lng":127.071011,"lat":37.540786},{"id":"locker-280","type":"locker","name":"뚝섬유원지 물품보관함","description":"7호선 뚝섬유원지역 2층 2, 3번 출구 방면 (게이트 정면)","lng":127.066704,"lat":37.53154},{"id":"locker-281","type":"locker","name":"청담 물품보관함","description":"7호선 청담역  B3층 12번 출구 방면 (편의점(GS25) 주변)","lng":127.05335,"lat":37.519365},{"id":"locker-282","type":"locker","name":"청담 물품보관함","description":"7호선 청담역 B3층 6~9번 방면 (쉼터, 화장품 및 편의점 주변)","lng":127.05335,"lat":37.519365},{"id":"locker-283","type":"locker","name":"강남구청 물품보관함","description":"7호선 강남구청역 B2층 화장실 주변","lng":127.041255,"lat":37.517179},{"id":"locker-284","type":"locker","name":"학동 물품보관함","description":"7호선 학동역 B2층 1, 2번 출구 화장실 주변","lng":127.031656,"lat":37.514229},{"id":"locker-285","type":"locker","name":"논현 물품보관함","description":"7호선 논현역 B1층 7~8번 출구 방면 (편의점(GS25) 주변)","lng":127.021415,"lat":37.511093},{"id":"locker-286","type":"locker","name":"반포 물품보관함","description":"7호선 반포역 B1층 1, 2번 출구 방면","lng":127.011727,"lat":37.508178},{"id":"locker-287","type":"locker","name":"고속터미널 물품보관함","description":"7호선 고속터미널역 B1층 3번 출구 방면 (화장실 주변)","lng":127.004403,"lat":37.50598},{"id":"locker-288","type":"locker","name":"내방 물품보관함","description":"7호선 내방역 B1층 대합실 (편의점(GS25) 주변)","lng":126.993513,"lat":37.487618},{"id":"locker-289","type":"locker","name":"이수 물품보관함","description":"7호선 이수역 B1층 5, 6번 출구 방면 (공연무대 주변)","lng":126.981605,"lat":37.485196},{"id":"locker-290","type":"locker","name":"남성 물품보관함","description":"7호선 남성역 B1층 2번 출구 방면","lng":126.971251,"lat":37.484596},{"id":"locker-291","type":"locker","name":"숭실대입구 물품보관함","description":"7호선 숭실대입구역 B1층 1, 2번 출구 방면 (편의점(GS25) 주변)","lng":126.953822,"lat":37.496029},{"id":"locker-292","type":"locker","name":"상도 물품보관함","description":"7호선 상도역 B1층 1~5번 출구 방면 (B2층 계단 주변)","lng":126.94791,"lat":37.502834},{"id":"locker-293","type":"locker","name":"장승배기 물품보관함","description":"7호선 장승배기역 B1층 1, 2번 출구 방면","lng":126.93915,"lat":37.504898},{"id":"locker-294","type":"locker","name":"신대방삼거리 물품보관함","description":"7호선 신대방삼거리역 B2층 화장실 주변","lng":126.928276,"lat":37.499701},{"id":"locker-295","type":"locker","name":"보라매 물품보관함","description":"7호선 보라매역 B1층 4번 출구 방면","lng":126.9204355,"lat":37.5002739},{"id":"locker-296","type":"locker","name":"신풍 물품보관함","description":"7호선 신풍역 B1층 2, 3번 출구 방면","lng":126.90993,"lat":37.50008},{"id":"locker-297","type":"locker","name":"대림 물품보관함","description":"7호선 대림역 B1층 게이트 주변 (9, 10번 출구)","lng":126.897075,"lat":37.493013},{"id":"locker-298","type":"locker","name":"남구로 물품보관함","description":"7호선 남구로역 B1층 게이트 주변 (2~5번 출구)","lng":126.887249,"lat":37.486056},{"id":"locker-299","type":"locker","name":"가산디지털단지 물품보관함","description":"7호선 가산디지털역 B1층 화장실 주변 (2~4번 출구)","lng":126.882656,"lat":37.480338},{"id":"locker-300","type":"locker","name":"철산 물품보관함","description":"7호선 철산역 B1층 4번 출구 방면","lng":126.867911,"lat":37.47605},{"id":"locker-301","type":"locker","name":"광명사거리 물품보관함","description":"7호선 광명사거리역 B1층 4, 5번 출구 방면","lng":126.854876,"lat":37.479252},{"id":"locker-302","type":"locker","name":"천왕 물품보관함","description":"7호선 천왕역 B1층 1, 3번 출구 방면 (화장실 맞은편)","lng":126.838713,"lat":37.486637},{"id":"locker-303","type":"locker","name":"온수 물품보관함","description":"7호선 온수역 B1층 고객상담실 주변(민원발급기 옆)","lng":126.823023,"lat":37.492092},{"id":"locker-304","type":"locker","name":"암사 물품보관함","description":"8호선 암사역 B1층 4번 출구 방면","lng":127.127562,"lat":37.55021},{"id":"locker-305","type":"locker","name":"강동구청 물품보관함","description":"8호선 강동구청역 B1층 1~5번 출구 방면 (편의점(7-ELEVEN) 주변)","lng":127.120508,"lat":37.530341},{"id":"locker-306","type":"locker","name":"몽촌토성 물품보관함","description":"8호선 몽촌토성역 B1층 1~5번 출구 방면 (편의점(7-ELEVEN) 주변)","lng":127.112359,"lat":37.517409},{"id":"locker-307","type":"locker","name":"잠실 물품보관함","description":"8호선 잠실역 B1층 10, 11번 출구 방면 (통로)","lng":127.104338,"lat":37.514692},{"id":"locker-308","type":"locker","name":"석촌 물품보관함","description":"8호선 석촌역 B1층 7, 8번 출구 방면 (편의점(7-ELEVEN) 주변)","lng":127.10704,"lat":37.505208},{"id":"locker-309","type":"locker","name":"송파 물품보관함","description":"8호선 송파역 B1층 화장실 주변","lng":127.112183,"lat":37.499703},{"id":"locker-310","type":"locker","name":"가락시장 물품보관함","description":"8호선 가락시장역 B1층 아기사랑방 주변 (1번 출구)","lng":127.118398,"lat":37.492888},{"id":"locker-311","type":"locker","name":"문정 물품보관함","description":"8호선 문정역 B1층 3, 4번 출구 방면","lng":127.1225,"lat":37.485855},{"id":"locker-312","type":"locker","name":"장지 물품보관함","description":"8호선 장지역 B1층 3번 출구 방면 (화장실 주변)","lng":127.126191,"lat":37.478703},{"id":"locker-313","type":"locker","name":"복정 물품보관함","description":"8호선 복정역 B1층 1, 2번 출구 방면","lng":127.126732,"lat":37.471052},{"id":"locker-314","type":"locker","name":"산성 물품보관함","description":"8호선 산성역 B1층 대합실앞 내 (현금인출기 주변)","lng":127.149908,"lat":37.457122},{"id":"locker-315","type":"locker","name":"남한산성입구 물품보관함","description":"8호선 남한산성입구역 B1층 1, 2번 출구 방면","lng":127.159816,"lat":37.451535},{"id":"locker-316","type":"locker","name":"단대오거리 물품보관함","description":"8호선 단대오거리역 B1층 1, 2번 출구 방면","lng":127.156866,"lat":37.44521},{"id":"locker-317","type":"locker","name":"신흥 물품보관함","description":"8호선 신흥역 B1층 대합실","lng":127.147564,"lat":37.440918},{"id":"locker-318","type":"locker","name":"수진 물품보관함","description":"8호선 수진역 B1층 화장실 주변","lng":127.140722,"lat":37.437428},{"id":"locker-319","type":"locker","name":"모란 물품보관함","description":"8호선 모란역 B1층 10번 출구 방면 (편의점(7-ELEVEN) 주변)","lng":127.129837,"lat":37.433824},{"id":"locker-320","type":"locker","name":"삼전 물품보관함","description":"9호선 1,4번 출입구 주변","lng":127.088025,"lat":37.504738},{"id":"locker-321","type":"locker","name":"석촌고분 물품보관함","description":"9호선 1번 출입구 방향","lng":127.097033,"lat":37.502558},{"id":"locker-322","type":"locker","name":"석촌 물품보관함","description":"9호선 5,6번 출입구 방향","lng":127.10704,"lat":37.505208},{"id":"locker-323","type":"locker","name":"송파나루 물품보관함","description":"9호선 지하1층  상가 맞은편","lng":127.112216,"lat":37.510372},{"id":"locker-324","type":"locker","name":"한성백제 물품보관함","description":"9호선 2번 출입구 방향 복도","lng":127.116503,"lat":37.516404},{"id":"locker-325","type":"locker","name":"올림픽공원 물품보관함","description":"9호선 3번 출입구 상가 주변","lng":127.130288,"lat":37.516269},{"id":"locker-326","type":"locker","name":"둔촌오륜 물품보관함","description":"9호선 1,2번 출입구 복도","lng":127.137989,"lat":37.519683},{"id":"locker-327","type":"locker","name":"중앙보훈병원 물품보관함","description":"9호선 3번 출입구 주변","lng":127.148739,"lat":37.529191}]